City_ID,City,Lat,Lng,Max Temp,Humidity,Cloudiness,Wind Speed,Country,Date
0,kismayo,-0.3582,-0.3582,80.1,77,22,17.74,SO,1693143757
1,zeya,53.75,53.75,53.22,63,96,3.22,RU,1693143758
2,hithadhoo,-0.6,-0.6,83.14,72,95,4.72,MV,1693143758
3,hazard,37.2495,37.2495,76.69,87,94,5.88,US,1693143758
4,grytviken,-54.2811,-54.2811,27.03,85,100,11.25,GS,1693143759
5,port mathurin,-19.6833,-19.6833,72.88,76,0,24.79,MU,1693143759
6,bratsk,56.1325,56.1325,59.49,91,75,2.84,RU,1693143760
7,jamestown,42.097,42.097,66.02,84,100,5.75,US,1693143760
8,petropavlovsk-kamchatsky,53.0452,53.0452,54.19,94,40,8.95,RU,1693143751
9,port-aux-francais,-49.35,-49.35,44.06,96,100,43.31,TF,1693143760
10,sao miguel do araguaia,-13.275,-13.275,91.98,40,84,1.25,BR,1693143761
11,maceio,-9.6658,-9.6658,81.84,83,75,9.22,BR,1693143676
12,adamstown,-25.066,-25.066,67.28,65,69,8.75,PN,1693143761
13,kavieng,-2.5744,-2.5744,80.76,83,99,11.45,PG,1693143762
14,kerikeri,-35.2268,-35.2268,48.9,91,62,3.2,NZ,1693143762
15,bethel,41.3712,41.3712,73.65,80,0,5.75,US,1693143762
16,waitangi,-43.9535,-43.9535,46.67,66,100,14.41,NZ,1693143763
17,ilulissat,69.2167,69.2167,48.22,66,75,13.8,GL,1693143763
18,blackmans bay,-43.0167,-43.0167,40.53,92,0,3.27,AU,1693143763
19,srandakan,-7.9386,-7.9386,71.94,88,3,3.67,ID,1693143763
20,ancud,-41.8697,-41.8697,44.78,77,100,13.56,CL,1693143764
21,ust-nera,64.5667,64.5667,52.12,83,100,3.36,RU,1693143764
22,albany,42.6001,42.6001,66.56,84,49,5.53,US,1693143764
23,ghanzi,-21.5667,-21.5667,78.82,7,100,11.36,BW,1693143765
24,pierre,44.3683,44.3683,61.72,82,0,10.36,US,1693143765
25,luderitz,-26.6481,-26.6481,81.61,25,0,6.38,NA,1693143609
26,lata,40.1629,40.1629,72.07,29,42,13.24,PT,1693143766
27,yulinshi,38.2906,38.2906,60.39,82,13,4.97,CN,1693143766
28,lensk,60.7253,60.7253,59.5,66,2,3.8,RU,1693143767
29,aitape,-3.1374,-3.1374,79.5,90,59,8.3,PG,1693143767
30,la ronge,55.1001,55.1001,59.25,82,20,8.05,CA,1693143767
31,cestos city,5.46,5.46,80.28,81,100,12.33,LR,1693143768
32,hamilton,39.1834,39.1834,68.97,85,100,11.5,US,1693143768
33,stepnoye,51.4,51.4,70.84,48,30,11.32,RU,1693143769
34,teplodar,46.5059,46.5059,91.78,29,0,15.7,UA,1693143769
35,prince rupert,54.3161,54.3161,55.09,100,40,3.44,CA,1693143769
36,thompson,55.7435,55.7435,57.36,100,100,4.61,CA,1693143769
37,san luis de la loma,17.2706,17.2706,79.84,79,21,4.03,MX,1693143770
38,zhezqazghan,47.7833,47.7833,66.78,45,40,20.13,KZ,1693143770
39,bayanhongor,46.7167,46.7167,53.78,50,12,1.52,MN,1693143771
40,sinabang,2.4803,2.4803,80.64,76,94,2.8,ID,1693143771
41,bilibino,68.0546,68.0546,46.13,93,100,0.98,RU,1693143771
42,nadi,-17.8,-17.8,71.6,73,40,9.22,FJ,1693143771
43,yelizovo,53.1873,53.1873,55.54,93,40,8.99,RU,1693143772
44,college,64.8569,64.8569,61.9,78,100,1.99,US,1693143772
45,iqaluit,63.7506,63.7506,40.73,75,75,18.41,CA,1693143609
46,whitby,54.4877,54.4877,63.32,78,30,4.0,GB,1693143773
47,stanley,54.868,54.868,64.27,94,40,3.44,GB,1693143773
48,chibougamau,49.9168,49.9168,55.02,67,0,6.91,CA,1693143773
49,port elizabeth,-33.918,-33.918,65.1,59,0,9.22,ZA,1693143774
50,vilyuchinsk,52.9306,52.9306,55.67,81,100,2.91,RU,1693143774
51,eyl,7.9803,7.9803,83.79,61,15,27.89,SO,1693143774
52,al bawiti,28.3492,28.3492,102.6,19,0,10.04,EG,1693143775
53,colonia,50.9333,50.9333,74.95,54,20,8.05,DE,1693143603
54,orcopampa,-15.2661,-15.2661,51.89,18,0,1.95,PE,1693143776
55,tyukhtet,56.5389,56.5389,62.06,87,100,6.76,RU,1693143776
56,pandan,14.0453,14.0453,82.31,78,100,20.56,PH,1693143776
57,chipinge,-20.1883,-20.1883,52.77,85,100,6.98,ZW,1693143777
58,ca mau,9.1769,9.1769,82.56,76,99,8.48,VN,1693143669
59,west bay,19.3667,19.3667,84.27,90,75,11.5,KY,1693143777
60,keflavik,64.0049,64.0049,57.11,82,75,16.11,IS,1693143778
61,nadym,65.5333,65.5333,54.14,69,92,3.94,RU,1693143741
62,puerto natales,-51.7236,-51.7236,37.67,95,94,4.12,CL,1693143536
63,san antonio de pale,-1.4014,-1.4014,75.31,84,65,15.01,GQ,1693143778
64,ushuaia,-54.8,-54.8,42.46,61,0,5.75,AR,1693143756
65,edinburgh of the seven seas,-37.0676,-37.0676,55.26,90,100,10.76,SH,1693143779
66,isafjordur,66.0755,66.0755,59.04,47,20,5.75,IS,1693143779
67,cumbal,0.9088,0.9088,41.11,87,0,0.0,CO,1693143780
68,gobabis,-22.45,-22.45,78.1,7,39,15.55,NA,1693143780
69,invercargill,-46.4,-46.4,35.02,93,50,4.0,NZ,1693143771
70,whitehorse,60.7161,60.7161,56.8,71,20,8.05,CA,1693143682
71,guajara mirim,-10.7828,-10.7828,77.16,78,40,10.36,BR,1693143781
72,the dalles,45.5946,45.5946,72.21,70,0,3.0,US,1693143782
73,avarua,-21.2078,-21.2078,71.65,73,20,6.91,CK,1693143782
74,udachny,66.4167,66.4167,68.45,45,51,6.51,RU,1693143783
75,kodiak,57.79,57.79,54.91,88,75,0.0,US,1693143783
76,charters towers,-20.1,-20.1,57.45,86,0,7.27,AU,1693143784
77,nuuk,64.1835,64.1835,43.41,93,75,24.16,GL,1693143784
78,lebu,-37.6167,-37.6167,50.83,63,4,7.65,CL,1693143784
79,kamenka,51.3223,51.3223,72.34,61,54,10.96,RU,1693143784
80,bedele,8.456,8.456,69.4,78,25,2.08,ET,1693143785
81,tiksi,71.6872,71.6872,49.71,97,63,1.48,RU,1693143785
82,villanueva,15.3167,15.3167,79.03,83,40,5.75,HN,1693143786
83,cartagena del chaira,1.3349,1.3349,82.2,70,8,1.81,CO,1693143786
84,pasaje,-3.3333,-3.3333,74.91,64,11,4.65,EC,1693143786
85,chonchi,-42.6128,-42.6128,45.12,82,100,8.08,CL,1693143787
86,swakopmund,-22.6833,-22.6833,68.85,81,5,8.01,NA,1693143787
87,wailua homesteads,22.0669,22.0669,79.59,82,75,13.8,US,1693143788
88,aral,40.5156,40.5156,87.4,13,100,5.97,CN,1693143788
89,saint-joseph,-21.3667,-21.3667,75.58,80,47,10.0,RE,1693143788
90,nykarleby,63.5228,63.5228,71.02,45,85,7.87,FI,1693143789
91,taoudenni,22.6783,22.6783,110.41,17,49,9.62,ML,1693143789
92,yellowknife,62.456,62.456,54.41,96,100,12.66,CA,1693143607
93,malango,-2.9627,-2.9627,67.06,97,94,1.72,ID,1693143790
94,puerto ayora,-0.7393,-0.7393,76.55,92,72,8.99,EC,1693143790
95,fortuna,40.5982,40.5982,57.54,95,100,0.0,US,1693143790
96,olonkinbyen,70.9221,70.9221,43.97,93,100,17.47,SJ,1693143791
97,sao jose da coroa grande,-8.8978,-8.8978,83.48,72,14,12.3,BR,1693143791
98,kyzylorda,44.8528,44.8528,71.62,35,40,20.13,KZ,1693143792
99,laramie,41.3114,41.3114,62.96,87,0,5.75,US,1693143792
100,punta arenas,-53.15,-53.15,38.57,96,100,1.59,CL,1693143793
101,markaz-e hukumat-e darweshan,31.1323,31.1323,99.99,10,1,14.97,AF,1693143793
102,jiwani,25.05,25.05,80.15,78,89,10.11,PK,1693143793
103,atafu village,-8.5421,-8.5421,81.82,77,50,11.1,TK,1693143794
104,ribeira grande,38.5167,38.5167,77.4,73,20,20.0,PT,1693143794
105,tura,25.5198,25.5198,74.07,95,100,3.69,IN,1693143795
106,warrenton,-28.114,-28.114,72.82,7,0,10.2,ZA,1693143795
107,am timan,11.0297,11.0297,89.53,52,88,3.47,TD,1693143796
108,krasnyy chikoy,50.3643,50.3643,54.55,87,1,1.92,RU,1693143796
109,jesus maria,-30.9815,-30.9815,59.79,31,7,10.67,AR,1693143796
110,porbandar,21.6422,21.6422,81.84,72,71,13.85,IN,1693143797
111,ust'-barguzin,53.45,53.45,57.4,81,96,3.33,RU,1693143797
112,carnarvon,-24.8667,-24.8667,69.06,59,0,8.3,AU,1693143797
113,flin flon,54.7682,54.7682,60.64,88,100,0.0,CA,1693143798
114,nouadhibou,20.931,20.931,103.98,25,8,20.71,MR,1693143798
115,uturoa,-16.7333,-16.7333,78.1,70,39,12.19,PF,1693143798
116,kuala terengganu,5.3302,5.3302,80.55,83,20,5.01,MY,1693143758
117,vaijapur,19.9167,19.9167,78.28,70,93,16.89,IN,1693143799
118,tal'menka,53.8183,53.8183,64.38,72,97,3.58,RU,1693143799
119,west island,-12.1568,-12.1568,76.98,78,75,14.97,CC,1693143686
120,nova sintra,14.8667,14.8667,76.51,76,18,2.42,CV,1693143800
121,labrador city,52.9463,52.9463,51.71,66,40,5.75,CA,1693143801
122,ngara,-2.5122,-2.5122,84.18,20,95,9.35,TZ,1693143801
123,vershino-darasunskiy,52.35,52.35,54.45,65,63,1.28,RU,1693143801
124,bhitarwar,25.8,25.8,81.73,68,22,10.51,IN,1693143802
125,port-vila,-17.7338,-17.7338,70.99,69,100,12.97,VU,1693143738
126,haiku-pauwela,20.9219,20.9219,73.26,84,5,8.99,US,1693143802
127,luba,3.4568,3.4568,84.09,87,100,10.4,GQ,1693143802
128,iskateley,67.6803,67.6803,45.75,88,100,10.47,RU,1693143803
129,lipnik nad becvou,49.5272,49.5272,82.56,69,100,3.44,CZ,1693143804
130,juegang,32.3174,32.3174,82.9,92,100,13.98,CN,1693143804
131,bayganin,48.6947,48.6947,65.46,33,86,11.65,KZ,1693143805
132,kristiansund,63.1115,63.1115,60.85,88,75,9.22,NO,1693143805
133,benghazi,32.1167,32.1167,84.54,61,0,10.89,LY,1693143805
134,frontera,26.9333,26.9333,79.9,54,70,1.99,MX,1693143806
135,geraldton,-28.7667,-28.7667,55.81,94,100,3.44,AU,1693143572
136,portland,45.5234,45.5234,65.21,85,40,4.61,US,1693143595
137,naze,28.3667,28.3667,79.72,82,21,13.22,JP,1693143552
138,les cayes,18.2,18.2,84.88,66,28,0.76,HT,1693143807
139,mount pearl,47.5166,47.5166,66.45,74,75,11.5,CA,1693143808
140,persembe,41.0656,41.0656,80.02,69,3,6.87,TR,1693143808
141,godda,24.8333,24.8333,85.6,70,99,7.11,IN,1693143808
142,isangel,-19.55,-19.55,68.59,81,100,13.62,VU,1693143809
143,kawanoecho,34.0167,34.0167,81.57,86,62,4.32,JP,1693143809
144,hadibu,12.65,12.65,82.18,73,100,16.49,YE,1693143810
145,macgregor,49.9661,49.9661,60.53,51,70,9.89,CA,1693143810
146,fale old settlement,-9.3852,-9.3852,81.99,74,95,9.89,TK,1693143811
147,pisco,-13.7,-13.7,66.25,77,100,4.61,PE,1693143811
148,saiha,22.4833,22.4833,71.2,100,100,1.72,IN,1693143811
149,mikhaylovskoye,51.8239,51.8239,67.68,63,100,5.75,RU,1693143812
150,kingston,17.997,17.997,87.24,73,40,4.61,JM,1693143539
151,joshimath,30.5667,30.5667,68.43,89,63,1.28,IN,1693143813
152,monze,-16.2833,-16.2833,90.16,13,7,11.59,ZM,1693143813
153,inhambane,-23.865,-23.865,73.38,53,40,17.27,MZ,1693143814
154,argostolion,38.1811,38.1811,86.07,62,20,13.8,GR,1693143814
155,porto novo,6.4965,6.4965,84.02,63,100,9.73,BJ,1693143814
156,coyhaique,-45.5752,-45.5752,46.35,61,75,10.36,CL,1693143815
157,kavaratti,10.5669,10.5669,81.34,78,99,10.92,IN,1693143815
158,at taj,24.2049,24.2049,108.91,9,0,8.93,LY,1693143815
159,aasiaat,68.7098,68.7098,37.94,84,100,9.66,GL,1693143816
160,polyarnyy,69.1989,69.1989,50.68,79,100,9.64,RU,1693143742
161,taroa,8.7058,8.7058,81.72,81,100,13.47,MH,1693143816
162,yanbu,24.0891,24.0891,98.64,53,20,11.5,SA,1693143711
163,qaqortoq,60.7167,60.7167,44.85,75,9,7.52,GL,1693143817
164,palu,-0.8917,-0.8917,76.01,96,88,2.71,ID,1693143555
165,priargunsk,50.3691,50.3691,60.35,62,100,2.48,RU,1693143817
166,elizabeth city,36.2946,36.2946,83.05,93,75,12.66,US,1693143818
167,havre,49.5833,49.5833,66.34,82,100,17.27,FR,1693143818
168,port lincoln,-34.7333,-34.7333,53.92,72,94,7.54,AU,1693143617
169,korsakov,46.6328,46.6328,64.24,93,100,7.14,RU,1693143820
170,saint-philippe,-21.3585,-21.3585,76.59,82,47,12.8,RE,1693143820
171,gaigeturi,33.4644,33.4644,82.45,78,40,8.05,KR,1693143821
172,dingtao,35.0683,35.0683,64.6,94,100,16.42,CN,1693143821
173,okha,53.5739,53.5739,52.12,90,73,6.85,RU,1693143821
174,pacific grove,36.6177,36.6177,60.64,94,0,1.99,US,1693143822
175,merizo village,13.2658,13.2658,81.16,97,100,18.41,GU,1693143822
176,angaur state,6.906,6.906,82.76,83,100,16.13,PW,1693143822
177,cooper's town,26.8667,26.8667,83.34,75,45,9.04,BS,1693143822
178,la'ie,21.6477,21.6477,76.1,77,6,5.01,US,1693143823
179,kuraymah,18.55,18.55,107.67,18,85,16.49,SD,1693143823
180,sint michiel liber,12.15,12.15,87.62,70,40,9.22,CW,1693143824
181,ulsteinvik,62.3432,62.3432,60.91,90,100,10.0,NO,1693143824
182,happy valley-goose bay,53.3168,53.3168,52.11,93,100,8.05,CA,1693143825
183,nadvoitsy,63.8667,63.8667,56.79,64,99,9.1,RU,1693143825
184,ciudad melchor muzquiz,27.8833,27.8833,83.8,49,3,2.91,MX,1693143825
185,chernyshevskiy,63.0128,63.0128,56.53,57,0,2.24,RU,1693143826
186,cartagena,10.3997,10.3997,82.02,83,0,4.61,CO,1693143664
187,termas de rio hondo,-27.4998,-27.4998,61.07,37,0,8.16,AR,1693143827
188,jining,35.405,35.405,64.72,92,100,12.82,CN,1693143723
189,anadyr,64.75,64.75,41.5,87,0,6.71,RU,1693143827
190,chakwal,32.9334,32.9334,86.99,55,3,2.77,PK,1693143827
191,papatowai,-46.5619,-46.5619,36.34,85,79,7.87,NZ,1693143828
192,loreto,22.2667,22.2667,61.63,77,90,7.11,MX,1693143828
193,nar'yan-mar,67.6713,67.6713,45.84,88,100,10.58,RU,1693143829
194,sitka,57.0531,57.0531,57.09,94,75,3.44,US,1693143829
195,saipan,15.1355,15.1355,81.3,94,40,6.91,MP,1693143655
196,guerrero negro,27.9769,27.9769,68.85,85,9,6.6,MX,1693143831
197,doaba,33.4244,33.4244,85.73,47,8,4.59,PK,1693143831
198,jwaneng,-24.6004,-24.6004,74.84,6,23,16.46,BW,1693143831
199,batticaloa,7.7102,7.7102,85.73,70,100,13.49,LK,1693143793
200,auki,-8.7676,-8.7676,74.86,89,98,3.71,SB,1693143832
201,puerto madryn,-42.7692,-42.7692,54.48,36,0,23.47,AR,1693143833
202,port alfred,-33.5906,-33.5906,63.18,68,56,5.01,ZA,1693143833
203,upington,-28.4478,-28.4478,77.38,8,0,3.44,ZA,1693143834
204,usinsk,65.9939,65.9939,43.79,96,100,7.45,RU,1693143834
205,oros,-6.2444,-6.2444,95.45,31,0,5.32,BR,1693143835
206,san patricio,28.017,28.017,84.04,75,0,5.75,US,1693143835
207,mejit,10.2753,10.2753,81.73,81,100,15.12,MH,1693143836
208,malvan,16.0667,16.0667,80.98,81,67,8.63,IN,1693143837
209,gaalkacyo,6.7697,6.7697,95.32,21,55,22.35,SO,1693143837
210,papao,-17.75,-17.75,76.68,68,37,14.23,PF,1693143837
211,hermanus,-34.4187,-34.4187,66.79,62,0,12.46,ZA,1693143838
212,dudinka,69.4058,69.4058,56.62,72,100,6.51,RU,1693143838
213,kapuskasing,49.4169,49.4169,50.09,93,0,2.3,CA,1693143839
214,moyale,3.5167,3.5167,82.9,26,2,16.75,KE,1693143839
215,rio grande,-32.035,-32.035,53.71,56,3,11.63,BR,1693143677
216,nahiyat ash shinafiyah,31.5874,31.5874,110.98,7,0,15.26,IQ,1693143840
217,smithers,54.7804,54.7804,50.32,100,40,0.0,CA,1693143840
218,georgetown,5.4112,5.4112,84.15,77,20,7.0,MY,1693143840
219,forster,-32.1667,-32.1667,54.28,88,13,5.37,AU,1693143841
220,san jose de jachal,-30.2406,-30.2406,49.86,49,0,5.7,AR,1693143842
221,berezovyy,51.6667,51.6667,48.83,90,69,3.27,RU,1693143842
222,francisco sa,-16.4758,-16.4758,75.34,46,91,4.92,BR,1693143843
223,kourou,5.1552,5.1552,87.85,60,13,8.79,GF,1693143843
224,balotra,25.8333,25.8333,91.2,43,58,25.05,IN,1693143551
225,suntar,62.1444,62.1444,57.7,47,0,3.91,RU,1693143844
226,calama,-22.4667,-22.4667,55.89,14,0,23.02,CL,1693143821
227,bafoulabe,13.8065,13.8065,88.45,68,100,8.61,ML,1693143845
228,puerto esperanza,-26.0152,-26.0152,62.64,39,0,3.67,AR,1693143845
229,margaret river,-33.95,-33.95,59.83,86,18,12.84,AU,1693143760
230,kapa'a,22.0752,22.0752,80.92,82,75,13.8,US,1693143846
231,guiyang,26.5833,26.5833,68.49,83,75,2.24,CN,1693143577
232,ta`u,-14.2336,-14.2336,79.65,80,100,20.98,AS,1693143846
233,le trait,49.4689,49.4689,68.54,62,59,14.54,FR,1693143847
234,east london,-33.0153,-33.0153,67.14,55,0,12.66,ZA,1693143832
235,lawton,34.6087,34.6087,79.41,72,0,13.8,US,1693143847
236,aripuana,-9.1667,-9.1667,91.11,45,15,3.83,BR,1693143848
237,hinton,53.4001,53.4001,55.76,68,7,4.72,CA,1693143848
238,kalevala,65.2,65.2,63.88,53,100,6.24,RU,1693143849
239,korem,12.5058,12.5058,70.68,52,81,12.15,ET,1693143849
240,puerto lempira,15.2667,15.2667,80.6,85,100,8.37,HN,1693143849
241,brasilia de minas,-16.2064,-16.2064,88.14,42,74,1.36,BR,1693143850
242,anna regina,7.2644,7.2644,86.67,68,8,11.79,GY,1693143850
243,baghlan,35.75,35.75,61.09,49,37,6.29,AF,1693143851
244,joutseno,61.118,61.118,68.54,46,97,2.59,FI,1693143851
245,hailar,49.2,49.2,59.31,62,100,3.53,CN,1693143852
246,miquelon,47.0975,47.0975,66.2,85,100,21.36,PM,1693143852
247,pechora,65.1472,65.1472,46.33,85,100,3.94,RU,1693143853
248,cowra,-33.8333,-33.8333,50.41,78,100,3.04,AU,1693143853
249,klyuchi,52.2667,52.2667,66.43,70,100,6.87,RU,1693143854
250,skopin,53.8249,53.8249,71.74,57,74,9.28,RU,1693143854
251,guarapari,-20.6667,-20.6667,64.89,88,100,7.96,BR,1693143820
252,crane,31.3974,31.3974,81.18,44,22,9.73,US,1693143855
253,tocopilla,-22.092,-22.092,69.4,60,18,5.19,CL,1693143855
254,esmeraldas,-19.7625,-19.7625,63.64,54,70,8.28,BR,1693143855
255,minas de marcona,-15.2119,-15.2119,59.04,71,44,10.69,PE,1693143857
256,new norfolk,-42.7826,-42.7826,41.72,96,2,1.95,AU,1693143857
257,nishinoomote,30.7333,30.7333,81.54,81,95,10.71,JP,1693143591
258,saldanha,-33.0117,-33.0117,68.05,66,0,10.71,ZA,1693143858
259,tumayr,25.7039,25.7039,107.87,8,5,10.04,SA,1693143858
260,luganville,-15.5333,-15.5333,73.26,72,100,9.35,VU,1693143859
261,al hawatah,13.4167,13.4167,91.27,50,33,9.57,SD,1693143859
262,libenge,3.65,3.65,87.19,55,100,3.31,CD,1693143860
263,berdigestyakh,62.0989,62.0989,60.49,70,14,3.09,RU,1693143860
264,ciudad rodrigo,40.6,40.6,73.78,26,9,10.89,ES,1693143861
265,harper,4.375,4.375,78.8,81,96,12.06,LR,1693143861
266,enewetak,11.3474,11.3474,80.55,84,100,19.44,MH,1693143861
267,hawaiian paradise park,19.5933,19.5933,71.89,95,100,5.75,US,1693143862
268,qaryat suluq,31.6682,31.6682,91.02,37,0,16.4,LY,1693143862
269,kuyeda,56.4311,56.4311,52.79,75,100,11.61,RU,1693143863
270,show low,34.2542,34.2542,67.14,74,40,0.0,US,1693143863
271,bonga,7.2833,7.2833,70.25,73,87,2.39,ET,1693143863
272,dungannon,54.5034,54.5034,58.51,95,100,5.55,GB,1693143864
273,itoman,26.1247,26.1247,83.17,83,20,3.44,JP,1693143837
274,majdal shams,33.2684,33.2684,81.37,51,0,14.43,IL,1693143864
275,plastun,44.7561,44.7561,62.26,98,100,3.83,RU,1693143865
276,ketchikan,55.3422,55.3422,57.18,100,100,0.0,US,1693143865
277,lihue,21.9789,21.9789,80.19,77,75,13.8,US,1693143865
278,palikir - national government center,6.9248,6.9248,75.94,94,100,2.3,FM,1693143866
279,badger,64.8,64.8,61.81,86,100,0.0,US,1693143866
280,namibe,-15.1961,-15.1961,75.83,60,0,12.66,AO,1693143867
281,sao paulo de olivenca,-3.3783,-3.3783,88.84,57,6,2.1,BR,1693143867
282,dryden,49.7833,49.7833,55.69,94,75,5.75,CA,1693143868
283,manavalakurichi,8.1333,8.1333,81.34,82,33,12.97,IN,1693143868
284,hammond,41.5834,41.5834,70.05,64,0,10.36,US,1693143869
285,manokwari,-0.8667,-0.8667,78.64,82,100,3.04,ID,1693143869
286,galliano,29.4422,29.4422,87.8,62,0,6.91,US,1693143870
287,chifeng,42.2683,42.2683,62.35,57,80,3.62,CN,1693143870
288,agri,39.6667,39.6667,85.33,20,0,4.61,TR,1693143870
289,horta,38.5333,38.5333,76.64,80,20,20.0,PT,1693143871
290,itarsi,22.6167,22.6167,76.71,81,12,6.42,IN,1693143871
291,afaahiti,-17.75,-17.75,75.07,71,42,16.37,PF,1693143872
292,bredasdorp,-34.5322,-34.5322,59.07,59,0,13.69,ZA,1693143872
293,kampong speu,11.5,11.5,80.44,75,100,5.01,KH,1693143872
294,rufino,-34.2683,-34.2683,51.46,42,100,12.46,AR,1693143764
295,balqash,46.8481,46.8481,72.19,64,75,15.66,KZ,1693143873
296,saudarkrokur,65.7461,65.7461,58.05,59,18,6.55,IS,1693143873
297,siilinjarvi,63.0833,63.0833,67.28,48,0,4.61,FI,1693143874
298,ladovskaya balka,45.6297,45.6297,87.17,16,0,8.81,RU,1693143874
299,sikasso,10.9167,10.9167,75.47,83,100,2.73,ML,1693143874
300,tolanaro,-25.0319,-25.0319,77.07,73,20,13.8,MG,1693143875
301,vorgashor,67.5833,67.5833,43.25,91,97,9.98,RU,1693143875
302,acarau,-2.8856,-2.8856,88.88,53,3,14.14,BR,1693143876
303,lompoc,34.6391,34.6391,64.92,87,100,3.0,US,1693143876
304,vila franca do campo,37.7167,37.7167,79.21,67,77,12.39,PT,1693143876
305,el bauga,18.262,18.262,105.93,21,10,12.21,SD,1693143877
306,bairnsdale,-37.8333,-37.8333,48.06,95,100,2.82,AU,1693143877
307,veshkayma,54.05,54.05,61.81,50,100,13.56,RU,1693143878
308,utrik,11.2278,11.2278,82.0,82,100,16.31,MH,1693143878
309,longyearbyen,78.2186,78.2186,46.24,93,75,11.5,SJ,1693143879
310,adrar,20.5022,20.5022,107.13,9,6,9.13,MR,1693143743
311,wafangdian,39.6183,39.6183,67.51,82,100,1.23,CN,1693143879
312,wotje,9.4543,9.4543,82.11,79,98,14.14,MH,1693143880
313,gazojak,41.1875,41.1875,76.71,17,0,16.08,TM,1693143880
314,nogliki,51.8333,51.8333,51.35,91,100,3.58,RU,1693143880
315,revda,56.801,56.801,51.44,80,58,5.79,RU,1693143881
316,lerwick,60.1545,60.1545,55.4,86,100,11.88,GB,1693143881
317,outokumpu,62.7269,62.7269,66.09,46,100,3.15,FI,1693143881
318,cadale,2.7603,2.7603,80.33,75,18,20.92,SO,1693143882
319,castillos,-34.1667,-34.1667,50.25,50,1,8.9,UY,1693143882
320,lesnoy,57.6198,57.6198,55.4,66,70,2.35,RU,1693143858
321,lake city,30.1897,30.1897,82.8,74,0,0.0,US,1693143883
322,rice lake,45.5061,45.5061,58.64,100,40,0.0,US,1693143883
323,loandjili,-4.7561,-4.7561,78.35,73,88,10.54,CG,1693143884
324,yambio,4.5721,4.5721,90.48,46,58,1.5,SS,1693143884
325,katsuren-haebaru,26.3369,26.3369,83.17,86,20,4.61,JP,1693143884
326,corozal,9.3151,9.3151,82.22,84,93,5.44,CO,1693143885
327,nikolayevsk-on-amure,53.1406,53.1406,51.13,72,74,2.86,RU,1693143885
328,trail,49.0998,49.0998,61.25,63,0,3.76,CA,1693143886
329,susuman,62.7833,62.7833,46.38,76,98,2.64,RU,1693143886
330,san sebastian de la gomera,28.0916,28.0916,88.38,58,0,9.22,ES,1693143886
331,davos,46.8043,46.8043,51.71,96,100,3.83,CH,1693143886
332,road town,18.4167,18.4167,86.09,74,20,8.05,VG,1693143887
333,nemuro,43.3236,43.3236,66.99,100,100,7.7,JP,1693143887
334,byron bay,-28.65,-28.65,56.71,79,9,6.76,AU,1693143887
335,turpan,42.9333,42.9333,97.9,11,0,4.38,CN,1693143888
336,oranjemund,-28.55,-28.55,77.36,22,0,15.86,NA,1693143611
337,juli,-16.2167,-16.2167,48.29,22,4,2.86,PE,1693143888
338,flying fish cove,-10.4217,-10.4217,74.88,83,40,12.66,CX,1693143889
339,christchurch,-43.5333,-43.5333,41.92,84,75,10.36,NZ,1693143636
340,kuala tungkal,-0.8167,-0.8167,80.06,82,6,4.97,ID,1693143890
341,laguna,38.421,38.421,67.17,85,0,4.61,US,1693143890
342,antonio enes,-16.2325,-16.2325,79.65,68,0,11.14,MZ,1693143890
343,kerrville,30.0474,30.0474,82.29,61,0,0.0,US,1693143891
344,baganga,7.5739,7.5739,79.41,86,16,5.99,PH,1693143891
345,mount gambier,-37.8333,-37.8333,45.43,96,68,2.39,AU,1693143829
346,saint-francois,46.4154,46.4154,69.67,56,40,11.5,FR,1693143892
347,chos malal,-37.3781,-37.3781,45.34,35,0,5.17,AR,1693143892
348,baukau,51.5526,51.5526,75.18,50,65,5.99,DE,1693143892
349,ar rutbah,33.0381,33.0381,99.19,15,0,8.46,IQ,1693143893
350,al ghayzah,16.2079,16.2079,81.23,80,45,15.46,YE,1693143893
351,altay,47.8667,47.8667,78.1,21,100,8.68,CN,1693143893
352,talnakh,69.4865,69.4865,56.21,68,99,5.77,RU,1693143894
353,santa elena de uairen,4.6167,4.6167,82.33,45,0,7.85,VE,1693143894
354,fundacion,10.5207,10.5207,86.29,68,97,7.65,CO,1693143894
355,villa gesell,-37.2639,-37.2639,49.05,63,0,4.07,AR,1693143731
356,north bend,43.4065,43.4065,61.86,82,100,0.0,US,1693143895
357,san juan de betulia,9.2735,9.2735,82.2,85,94,5.68,CO,1693143895
358,constantia,44.1833,44.1833,86.7,54,0,9.01,RO,1693143645
359,hami,42.8,42.8,90.52,12,0,26.02,CN,1693143896
360,newman,37.3138,37.3138,65.28,82,0,4.54,US,1693143896
361,machico,32.7,32.7,81.72,68,40,16.11,PT,1693143897
362,tutoia,-2.7619,-2.7619,86.56,56,92,10.92,BR,1693143897
363,mhamid,29.82,29.82,108.5,10,0,11.99,MA,1693143897
364,le port,-20.9373,-20.9373,77.0,97,84,6.04,RE,1693143897
365,jalai nur,49.45,49.45,60.58,61,100,10.49,CN,1693143898
366,port blair,11.6667,11.6667,82.44,83,75,4.61,IN,1693143898
367,usogorsk,63.4106,63.4106,46.76,85,100,7.29,RU,1693143898
368,ola,59.5833,59.5833,52.14,87,22,1.77,RU,1693143899
369,woolgoolga,-30.1106,-30.1106,58.05,78,36,4.83,AU,1693143899
370,severo-yeniseyskiy,60.3725,60.3725,50.14,75,91,3.8,RU,1693143899
371,rypin,53.066,53.066,75.65,55,100,6.11,PL,1693143900
372,verkhniye sergi,56.6469,56.6469,50.86,81,75,6.64,RU,1693143900
373,hasaki,35.7333,35.7333,81.3,81,100,11.23,JP,1693143900
374,ganjam,19.3833,19.3833,85.15,77,62,6.71,IN,1693143901
375,kone,-21.0595,-21.0595,62.64,76,98,4.29,NC,1693143902
376,karangampel,-6.4622,-6.4622,79.93,72,36,9.35,ID,1693143902
377,chandler,33.3062,33.3062,91.04,43,40,6.91,US,1693143748
378,vernon,50.2581,50.2581,58.93,68,0,3.44,CA,1693143903
379,calvinia,-31.4707,-31.4707,68.23,17,0,12.06,ZA,1693143903
380,wladyslawowo,54.7909,54.7909,72.41,69,100,7.96,PL,1693143903
381,khovd,48.0056,48.0056,74.1,26,67,4.05,MN,1693143904
382,mangrol,21.1167,21.1167,80.67,77,96,12.33,IN,1693143904
383,natal,-5.795,-5.795,84.85,74,75,9.22,BR,1693143904
384,puerto baquerizo moreno,-0.9,-0.9,74.07,79,89,13.18,EC,1693143905
385,tofol,5.3248,5.3248,83.68,72,100,9.75,FM,1693143905
386,cururupu,-1.8283,-1.8283,89.51,51,8,6.87,BR,1693143905
387,talara,-4.5772,-4.5772,70.56,83,40,13.13,PE,1693143906
388,tual,-5.6667,-5.6667,77.49,86,93,21.81,ID,1693143906
389,mount darwin,-16.7725,-16.7725,80.06,38,3,17.69,ZW,1693143907
390,puerto deseado,-47.7503,-47.7503,48.07,53,64,26.87,AR,1693143907
391,johnstown,40.3267,40.3267,73.78,93,100,4.61,US,1693143908
392,khasab,26.1799,26.1799,99.03,47,10,3.27,OM,1693143816
393,coahuayana de hidalgo,18.7,18.7,78.91,83,100,2.71,MX,1693143908
394,sisimiut,66.9395,66.9395,44.17,75,100,24.09,GL,1693143909
395,pizarro,4.9533,4.9533,80.15,84,79,3.89,CO,1693143909
396,tazovsky,67.4667,67.4667,53.46,75,100,15.68,RU,1693143909
397,douglas,41.3,41.3,66.51,87,0,5.75,US,1693143910
398,cabo san lucas,22.8909,22.8909,85.51,74,20,11.5,MX,1693143910
399,balikpapan,-1.2675,-1.2675,81.59,83,40,4.61,ID,1693143860
400,marsa alam,25.0757,25.0757,95.07,37,8,21.32,EG,1693143911
401,kailashahar,24.3333,24.3333,76.75,97,100,6.06,IN,1693143911
402,yung shue wan,22.2333,22.2333,86.68,85,95,9.57,HK,1693143911
403,arno,60.1167,60.1167,63.79,57,8,4.36,SE,1693143912
404,mildura,-34.2,-34.2,51.08,80,83,8.81,AU,1693143795
405,bangor,54.6534,54.6534,61.09,82,100,2.3,GB,1693143912
406,fort irwin,35.2627,35.2627,71.13,37,0,6.91,US,1693143913
407,la passe,45.5549,45.5549,75.43,51,7,17.36,FR,1693143914
408,tralee,52.2704,52.2704,62.85,94,75,9.22,IE,1693143667
409,okhotsk,59.3833,59.3833,57.85,71,11,4.25,RU,1693143915
410,arraial do cabo,-22.9661,-22.9661,64.26,88,75,4.61,BR,1693143912
411,sydney,-33.8679,-33.8679,56.5,86,100,4.61,AU,1693143897
412,broken hill,-31.95,-31.95,56.66,58,0,9.46,AU,1693143916
413,basco,20.4487,20.4487,83.35,79,4,11.9,PH,1693143916
414,dwarka,22.2394,22.2394,81.72,74,97,16.69,IN,1693143917
415,colby,39.3958,39.3958,62.04,79,0,3.44,US,1693143917
416,ouesso,1.6136,1.6136,84.99,63,100,3.22,CG,1693143917
417,necochea,-38.5473,-38.5473,49.78,56,0,11.03,AR,1693143918
418,ardakan,32.31,32.31,92.61,19,0,16.82,IR,1693143918
419,murzuq,25.9155,25.9155,107.37,12,89,6.51,LY,1693143918
420,hobyo,5.3505,5.3505,81.37,68,2,29.28,SO,1693143919
421,saint-pierre,-21.3393,-21.3393,76.68,69,0,1.14,RE,1693143919
422,phitsanulok,16.9167,16.9167,82.51,84,100,2.3,TH,1693143717
423,shahrud,36.4182,36.4182,71.69,36,18,15.03,IR,1693143881
424,midvagur,62.0511,62.0511,52.63,93,100,8.05,FO,1693143920
425,poronaysk,49.2167,49.2167,56.59,95,100,7.05,RU,1693143920
426,alaghsas,17.0187,17.0187,98.49,39,20,9.22,NE,1693143921
427,marion,39.7684,39.7684,69.04,86,100,11.5,US,1693143921
428,nesterov,54.6306,54.6306,80.19,43,91,3.91,RU,1693143921
429,akyurt,40.1351,40.1351,89.13,15,20,13.8,TR,1693143921
430,st. john's,47.5649,47.5649,68.79,74,75,11.5,CA,1693143922
431,choibalsan,48.0667,48.0667,56.93,74,100,4.83,MN,1693143922
432,conde,-7.2597,-7.2597,83.66,74,75,8.05,BR,1693143922
433,tucuma,-0.1833,-0.1833,89.13,56,17,5.75,BR,1693143923
434,cidreira,-30.1811,-30.1811,55.15,50,4,10.47,BR,1693143923
435,jikamshi,12.1733,12.1733,82.15,64,100,18.1,NG,1693143923
436,bashmakovo,53.2133,53.2133,66.9,63,33,9.24,RU,1693143924
437,queenstown,-31.8976,-31.8976,61.14,26,0,9.78,ZA,1693143924
438,resita,45.3008,45.3008,90.9,26,0,10.65,RO,1693143655
439,prachuap khiri khan,12.2167,12.2167,76.19,81,87,5.39,TH,1693143636
440,kattivakkam,13.2167,13.2167,87.89,86,100,8.46,IN,1693143925
441,corbelia,-24.7989,-24.7989,60.15,53,0,6.64,BR,1693143925
442,yaren,-0.5472,-0.5472,83.3,74,50,10.6,NR,1693143926
443,kolpny,52.2282,52.2282,80.71,42,35,9.4,RU,1693143926
444,ratne,51.6683,51.6683,89.22,40,100,7.76,UA,1693143926
445,vicuna,-30.0319,-30.0319,69.76,10,8,0.89,CL,1693143927
446,bosaso,11.2842,11.2842,94.98,63,0,5.37,SO,1693143927
447,oriximina,-1.7656,-1.7656,92.64,40,0,4.0,BR,1693143928
448,los rastrojos,10.0259,10.0259,79.16,65,99,3.44,VE,1693143928
449,vila velha,-20.3297,-20.3297,66.15,98,100,13.8,BR,1693143929
450,prieska,-29.6641,-29.6641,71.38,11,0,13.8,ZA,1693143929
451,leiyang,26.4024,26.4024,72.81,96,100,7.54,CN,1693143930
452,katabu,-4.9333,-4.9333,74.52,76,4,5.7,ID,1693143930
453,mogadishu,2.0371,2.0371,78.67,89,75,19.57,SO,1693143811
454,coquimbo,-29.9533,-29.9533,62.33,33,0,4.61,CL,1693143931
455,betare oya,5.6,5.6,79.9,70,100,1.92,CM,1693143932
456,feijo,-8.1642,-8.1642,92.62,41,0,1.79,BR,1693143932
457,washington,47.5001,47.5001,67.91,50,0,3.83,US,1693143728
458,staraya russa,57.9944,57.9944,73.15,55,64,5.93,RU,1693143933
459,herval,-32.0236,-32.0236,47.73,55,1,5.91,BR,1693143934
460,belek,36.8628,36.8628,88.3,60,0,12.77,TR,1693143934
461,los aquijes,-14.0967,-14.0967,71.11,56,6,3.2,PE,1693143934
462,bochum,51.4833,51.4833,74.62,46,71,5.01,DE,1693143653
463,yoichi,43.2039,43.2039,72.77,88,86,5.37,JP,1693143905
464,tqvarch'eli,42.8404,42.8404,82.92,56,1,4.14,GE,1693143935
465,hiratacho,35.4333,35.4333,80.62,90,5,6.29,JP,1693143936
466,kruisfontein,-34.0033,-34.0033,62.89,49,5,4.43,ZA,1693143937
467,calgary,51.0501,51.0501,62.6,62,75,3.44,CA,1693143836
468,zahedan,29.4963,29.4963,91.31,21,1,13.8,IR,1693143937
469,el salto,20.3333,20.3333,63.32,92,90,2.17,MX,1693143938
470,novi petrivtsi,50.6224,50.6224,92.14,28,54,2.91,UA,1693143938
471,marshalltown,42.0494,42.0494,64.38,84,75,8.99,US,1693143938
472,gargalianoi,37.0667,37.0667,90.21,60,0,8.21,GR,1693143939
473,sanibel,26.449,26.449,86.02,79,6,5.01,US,1693143939
474,arkhangel'sk,64.5401,64.5401,54.3,59,100,7.54,RU,1693143677
475,lethem,3.3803,3.3803,92.1,44,0,7.29,GY,1693143940
476,chelak,39.9203,39.9203,77.76,24,84,17.0,UZ,1693143926
477,mar del plata,-38.0023,-38.0023,49.95,71,0,6.91,AR,1693143739
478,antofagasta,-23.65,-23.65,63.68,56,4,3.47,CL,1693143940
479,santo amaro da imperatriz,-27.6881,-27.6881,63.64,64,29,3.06,BR,1693143941
480,dalhousie,32.5333,32.5333,58.95,88,5,3.0,IN,1693143941
481,san carlos del zulia,9.0,9.0,85.37,71,87,2.24,VE,1693143941
482,weno,7.4515,7.4515,82.53,75,100,7.65,FM,1693143942
483,dien bien phu,21.3833,21.3833,75.04,98,100,2.55,VN,1693143678
484,bodaybo,57.8506,57.8506,62.2,75,50,1.9,RU,1693143943
485,pingliang,35.5392,35.5392,61.2,79,5,1.81,CN,1693143943
486,verkhnevilyuysk,63.4453,63.4453,61.5,67,6,3.29,RU,1693143943
487,izobil'nyy,45.3709,45.3709,85.24,15,0,8.81,RU,1693143848
488,mont-laurier,46.5501,46.5501,56.82,58,0,5.99,CA,1693143944
489,magadan,59.5667,59.5667,51.53,86,23,1.54,RU,1693143944
490,porto murtinho,-21.6989,-21.6989,67.12,32,100,7.36,BR,1693143945
491,tazacorte,28.629,28.629,82.15,83,20,14.97,ES,1693143945
492,sorong,-0.8833,-0.8833,78.08,90,82,14.27,ID,1693143945
493,beira,-19.8436,-19.8436,71.69,73,100,25.32,MZ,1693143945
494,mwene-ditu,-7.0,-7.0,96.01,21,96,7.74,CD,1693143946
495,fraga,41.5229,41.5229,74.23,43,99,15.03,ES,1693143947
496,greenville,35.6127,35.6127,81.12,84,0,0.0,US,1693143947
497,miringa,10.7312,10.7312,71.19,89,100,2.62,NG,1693143948
498,sarkand,45.41,45.41,72.14,56,100,4.74,KZ,1693143948
499,siwa oasis,29.2041,29.2041,101.73,21,0,9.78,EG,1693143949
500,nili,33.7218,33.7218,74.73,20,1,18.25,AF,1693143949
501,makubetsu,45.3714,45.3714,70.83,92,100,5.01,JP,1693143949
502,veraval,20.9,20.9,80.13,80,93,10.83,IN,1693143949
503,remire-montjoly,4.9167,4.9167,87.84,70,75,5.75,GF,1693143950
504,khandyga,62.6667,62.6667,52.59,86,68,3.6,RU,1693143951
505,mount isa,-20.7333,-20.7333,65.97,37,0,5.75,AU,1693143674
506,americo brasiliense,-21.7244,-21.7244,59.07,78,72,8.12,BR,1693143952
507,tezu,27.9167,27.9167,74.26,98,100,2.64,IN,1693143952
508,bastrop,32.7562,32.7562,82.08,83,0,3.44,US,1693143952
509,mukalla,14.5425,14.5425,88.32,69,26,9.22,YE,1693143953
510,labytnangi,66.6572,66.6572,51.67,58,100,5.28,RU,1693143953
511,pacocha,-17.5833,-17.5833,67.19,66,35,4.68,PE,1693143954
512,akjoujt,19.6969,19.6969,114.04,7,33,18.19,MR,1693143954
513,fort st. john,56.2499,56.2499,58.89,67,0,5.75,CA,1693143955
514,masterton,-40.9597,-40.9597,43.88,94,74,3.87,NZ,1693143955
515,champerico,14.3,14.3,81.14,77,99,2.98,GT,1693143955
516,dawei,14.0833,14.0833,76.55,91,94,0.49,MM,1693143956
517,kailua-kona,19.6406,19.6406,75.16,90,100,13.8,US,1693143956
518,isla mujeres,21.2311,21.2311,78.85,83,100,11.45,MX,1693143956
519,bhimunipatnam,17.8833,17.8833,85.66,72,100,6.58,IN,1693143957
520,santa isabel,-23.3156,-23.3156,56.91,91,100,6.87,BR,1693143957
521,yalta,44.5,44.5,81.05,45,0,10.2,UA,1693143957
522,marietta,33.9526,33.9526,82.49,75,20,3.44,US,1693143725
523,gamba,-2.65,-2.65,76.82,80,95,10.63,GA,1693143958
524,zdvinsk,54.7021,54.7021,63.18,66,73,7.49,RU,1693143959
525,hakui,36.8833,36.8833,79.25,91,100,2.75,JP,1693143959
526,beaufort west,-32.3567,-32.3567,65.84,21,0,9.98,ZA,1693143959
527,taksimo,56.3444,56.3444,58.82,76,60,3.87,RU,1693143960
528,tubarjal,30.4999,30.4999,98.55,12,0,11.21,SA,1693143960
529,mancio lima,-7.6142,-7.6142,80.67,78,7,0.0,BR,1693143961
530,kayyerkan,69.3786,69.3786,56.3,71,83,7.83,RU,1693143961
531,qarauyl,48.9451,48.9451,78.98,28,100,22.41,KZ,1693143962
532,matola,-25.9622,-25.9622,71.55,56,40,21.85,MZ,1693143963
533,sao joao da barra,-21.6403,-21.6403,66.29,81,100,9.91,BR,1693143963
534,karmaskaly,54.3709,54.3709,62.51,65,98,6.78,RU,1693143964
535,port hedland,-20.3167,-20.3167,66.25,72,3,1.14,AU,1693143964
536,tsiombe,-25.3,-25.3,72.86,75,35,13.96,MG,1693143964
537,fauske,67.2588,67.2588,71.94,44,9,9.26,NO,1693143965
538,sodra sandby,56.5667,56.5667,66.06,74,100,10.31,SE,1693143965
539,luanco,43.6152,43.6152,70.02,71,64,13.13,ES,1693143965
540,alice springs,-23.7,-23.7,49.55,34,8,0.0,AU,1693143852
541,deqen,29.9618,29.9618,53.2,78,28,2.15,CN,1693143966
542,agadez,19.75,19.75,107.47,14,47,6.06,NE,1693143966
543,vilhena,-12.7406,-12.7406,71.82,78,40,9.22,BR,1693143967
544,emerald,-23.5333,-23.5333,61.34,48,0,9.57,AU,1693143967
545,tayoltita,24.0833,24.0833,69.4,76,67,6.06,MX,1693143968
546,kargil,34.5667,34.5667,60.69,34,74,6.2,IN,1693143968
547,saint-raphael,19.4333,19.4333,81.77,65,0,3.98,HT,1693143969
548,bengkulu,-3.8004,-3.8004,77.02,87,24,12.77,ID,1693143969
549,miles city,46.4083,46.4083,61.77,67,0,9.22,US,1693143969
550,holualoa,19.6228,19.6228,71.44,90,100,13.8,US,1693143970
551,numan,9.4667,9.4667,76.75,82,100,5.91,NG,1693143970
552,t'ongch'on-up,38.9539,38.9539,70.99,91,100,4.05,KP,1693143970
553,jiazi,22.8779,22.8779,83.1,85,99,3.87,CN,1693143971
554,port saint john's,-31.6229,-31.6229,65.23,58,47,7.34,ZA,1693143971
555,vorkuta,67.5,67.5,44.06,89,96,9.42,RU,1693143972
556,zhicheng,30.2956,30.2956,68.5,93,100,6.69,CN,1693143972
557,northam,51.0333,51.0333,64.29,90,100,11.95,GB,1693143973
558,taltal,-25.4,-25.4,67.01,56,0,4.54,CL,1693143973
559,koundara,12.4833,12.4833,87.64,68,100,7.34,GN,1693143973
560,boyolangu,-8.1181,-8.1181,71.17,95,40,3.71,ID,1693143973
561,filingue,14.3521,14.3521,96.33,36,100,6.53,NE,1693143974
562,rampachodavaram,17.45,17.45,84.11,84,96,5.61,IN,1693143974
563,walvis bay,-22.9575,-22.9575,68.95,52,0,12.66,NA,1693143975
564,ankazoabo,-22.2833,-22.2833,87.22,22,23,13.15,MG,1693143975
565,sevastopol,44.6,44.6,80.37,53,0,3.24,UA,1693143681
566,shenjiamen,29.9576,29.9576,82.65,82,92,14.56,CN,1693143975
567,qarqaraly,49.4058,49.4058,62.24,63,100,2.51,KZ,1693143976
568,bocana de paiwas,12.7857,12.7857,77.95,89,100,2.8,NI,1693143976
569,muromtsevo,56.3724,56.3724,55.83,95,100,5.41,RU,1693143976
570,cukurca,37.2481,37.2481,91.02,19,3,11.65,TR,1693143977
571,vilyuysk,63.7553,63.7553,62.19,64,6,3.09,RU,1693143977
572,fort-shevchenko,44.5086,44.5086,72.32,36,4,8.05,KZ,1693143977
573,rongelap,11.1635,11.1635,82.24,80,100,20.13,MH,1693143978
574,biltine,14.5333,14.5333,96.87,35,60,10.51,TD,1693143978
575,palmer,42.1584,42.1584,73.24,75,20,4.61,US,1693143979
576,korla,41.7597,41.7597,86.85,13,99,11.99,CN,1693143908
577,vadso,70.0744,70.0744,55.56,71,100,8.05,NO,1693143979
578,noosa heads,-26.3833,-26.3833,62.11,76,0,10.69,AU,1693143980
579,nianzishan,47.5167,47.5167,59.63,70,8,1.05,CN,1693143980
580,prado,-17.3411,-17.3411,72.82,94,100,8.14,BR,1693143981
